{
"type": "FeatureCollection",
"name": "departements_centroids",
"crs": { "type": "name", "properties": { "name": "urn:ogc:def:crs:OGC:1.3:CRS84" } },
"features": [
{ "type": "Feature", "properties": { "dep": "01", "nom_dept": "Ain" }, "geometry": { "type": "Point", "coordinates": [ 5.348977846538799, 46.099592017603328 ] } },
{ "type": "Feature", "properties": { "dep": "02", "nom_dept": "Aisne" }, "geometry": { "type": "Point", "coordinates": [ 3.558202365686935, 49.559934296963988 ] } },
{ "type": "Feature", "properties": { "dep": "03", "nom_dept": "Allier" }, "geometry": { "type": "Point", "coordinates": [ 3.188216470620865, 46.393789003298856 ] } },
{ "type": "Feature", "properties": { "dep": "04", "nom_dept": "Alpes-de-HdP" }, "geometry": { "type": "Point", "coordinates": [ 6.243713548112115, 44.106055161184656 ] } },
{ "type": "Feature", "properties": { "dep": "05", "nom_dept": "Hautes-Alpes" }, "geometry": { "type": "Point", "coordinates": [ 6.263280435302816, 44.663779867942615 ] } },
{ "type": "Feature", "properties": { "dep": "06", "nom_dept": "Alpes-Maritimes" }, "geometry": { "type": "Point", "coordinates": [ 7.116201670218365, 43.937689675218515 ] } },
{ "type": "Feature", "properties": { "dep": "07", "nom_dept": "Ardèche" }, "geometry": { "type": "Point", "coordinates": [ 4.424661460480444, 44.751832588232404 ] } },
{ "type": "Feature", "properties": { "dep": "08", "nom_dept": "Ardennes" }, "geometry": { "type": "Point", "coordinates": [ 4.640818541047257, 49.615853570485257 ] } },
{ "type": "Feature", "properties": { "dep": "09", "nom_dept": "Ariège" }, "geometry": { "type": "Point", "coordinates": [ 1.503928858756893, 42.92089797345804 ] } },
{ "type": "Feature", "properties": { "dep": "10", "nom_dept": "Aube" }, "geometry": { "type": "Point", "coordinates": [ 4.161923125289323, 48.304545608660241 ] } },
{ "type": "Feature", "properties": { "dep": "11", "nom_dept": "Aude" }, "geometry": { "type": "Point", "coordinates": [ 2.413641803273151, 43.10330994639537 ] } },
{ "type": "Feature", "properties": { "dep": "12", "nom_dept": "Aveyron" }, "geometry": { "type": "Point", "coordinates": [ 2.679675174689059, 44.280311456004306 ] } },
{ "type": "Feature", "properties": { "dep": "13", "nom_dept": "Bouches-du-Rhône" }, "geometry": { "type": "Point", "coordinates": [ 5.086440460058555, 43.545834151987542 ] } },
{ "type": "Feature", "properties": { "dep": "14", "nom_dept": "Calvados" }, "geometry": { "type": "Point", "coordinates": [ -0.361972847642985, 49.09999710979303 ] } },
{ "type": "Feature", "properties": { "dep": "15", "nom_dept": "Cantal" }, "geometry": { "type": "Point", "coordinates": [ 2.668635764743672, 45.051071416135088 ] } },
{ "type": "Feature", "properties": { "dep": "16", "nom_dept": "Charente" }, "geometry": { "type": "Point", "coordinates": [ 0.201785139588068, 45.718197293021092 ] } },
{ "type": "Feature", "properties": { "dep": "17", "nom_dept": "Charente-Maritime" }, "geometry": { "type": "Point", "coordinates": [ -0.677346082519816, 45.773838856497257 ] } },
{ "type": "Feature", "properties": { "dep": "18", "nom_dept": "Cher" }, "geometry": { "type": "Point", "coordinates": [ 2.490990903761892, 47.064785065153394 ] } },
{ "type": "Feature", "properties": { "dep": "19", "nom_dept": "Corrèze" }, "geometry": { "type": "Point", "coordinates": [ 1.876965073652768, 45.357059404073347 ] } },
{ "type": "Feature", "properties": { "dep": "21", "nom_dept": "Côte-d'Or" }, "geometry": { "type": "Point", "coordinates": [ 4.772339004233712, 47.424855534233117 ] } },
{ "type": "Feature", "properties": { "dep": "22", "nom_dept": "Côtes-d'Armor" }, "geometry": { "type": "Point", "coordinates": [ -2.863861442395659, 48.440959625910132 ] } },
{ "type": "Feature", "properties": { "dep": "23", "nom_dept": "Creuse" }, "geometry": { "type": "Point", "coordinates": [ 2.018725669584003, 46.090336331240415 ] } },
{ "type": "Feature", "properties": { "dep": "24", "nom_dept": "Dordogne" }, "geometry": { "type": "Point", "coordinates": [ 0.741306708243442, 45.104265645906885 ] } },
{ "type": "Feature", "properties": { "dep": "25", "nom_dept": "Doubs" }, "geometry": { "type": "Point", "coordinates": [ 6.361808774908061, 47.165535271127133 ] } },
{ "type": "Feature", "properties": { "dep": "26", "nom_dept": "Drôme" }, "geometry": { "type": "Point", "coordinates": [ 5.1680044688463, 44.683962501725865 ] } },
{ "type": "Feature", "properties": { "dep": "27", "nom_dept": "Eure" }, "geometry": { "type": "Point", "coordinates": [ 0.996135910220731, 49.113686177587482 ] } },
{ "type": "Feature", "properties": { "dep": "28", "nom_dept": "Eure-et-Loir" }, "geometry": { "type": "Point", "coordinates": [ 1.370210515744627, 48.387527943095193 ] } },
{ "type": "Feature", "properties": { "dep": "29", "nom_dept": "Finistère" }, "geometry": { "type": "Point", "coordinates": [ -4.059498864522578, 48.261141793922775 ] } },
{ "type": "Feature", "properties": { "dep": "2A", "nom_dept": "Corse-du-Sud" }, "geometry": { "type": "Point", "coordinates": [ 8.988761190647303, 41.863124033722691 ] } },
{ "type": "Feature", "properties": { "dep": "2B", "nom_dept": "Haute-Corse" }, "geometry": { "type": "Point", "coordinates": [ 9.206432497774452, 42.393956243719053 ] } },
{ "type": "Feature", "properties": { "dep": "30", "nom_dept": "Gard" }, "geometry": { "type": "Point", "coordinates": [ 4.180147562038067, 43.993492336595054 ] } },
{ "type": "Feature", "properties": { "dep": "31", "nom_dept": "Haute-Garonne" }, "geometry": { "type": "Point", "coordinates": [ 1.172365943563497, 43.358156238984677 ] } },
{ "type": "Feature", "properties": { "dep": "32", "nom_dept": "Gers" }, "geometry": { "type": "Point", "coordinates": [ 0.453326700996956, 43.692846061689359 ] } },
{ "type": "Feature", "properties": { "dep": "33", "nom_dept": "Gironde" }, "geometry": { "type": "Point", "coordinates": [ -0.581338520274088, 44.837939486872472 ] } },
{ "type": "Feature", "properties": { "dep": "34", "nom_dept": "Hérault" }, "geometry": { "type": "Point", "coordinates": [ 3.367376824615095, 43.579707706236888 ] } },
{ "type": "Feature", "properties": { "dep": "35", "nom_dept": "Ille-et-Vilaine" }, "geometry": { "type": "Point", "coordinates": [ -1.638460892403139, 48.154429315695026 ] } },
{ "type": "Feature", "properties": { "dep": "36", "nom_dept": "Indre" }, "geometry": { "type": "Point", "coordinates": [ 1.575901454630068, 46.777819284659827 ] } },
{ "type": "Feature", "properties": { "dep": "37", "nom_dept": "Indre-et-Loire" }, "geometry": { "type": "Point", "coordinates": [ 0.691490013489258, 47.258122717955679 ] } },
{ "type": "Feature", "properties": { "dep": "38", "nom_dept": "Isère" }, "geometry": { "type": "Point", "coordinates": [ 5.576149101715762, 45.263235223972551 ] } },
{ "type": "Feature", "properties": { "dep": "39", "nom_dept": "Jura" }, "geometry": { "type": "Point", "coordinates": [ 5.697716786131435, 46.728385507739489 ] } },
{ "type": "Feature", "properties": { "dep": "40", "nom_dept": "Landes" }, "geometry": { "type": "Point", "coordinates": [ -0.783962781057604, 43.965323691542835 ] } },
{ "type": "Feature", "properties": { "dep": "41", "nom_dept": "Loir-et-Cher" }, "geometry": { "type": "Point", "coordinates": [ 1.429496047499843, 47.616674364269649 ] } },
{ "type": "Feature", "properties": { "dep": "42", "nom_dept": "Loire" }, "geometry": { "type": "Point", "coordinates": [ 4.165760825983606, 45.727038623089129 ] } },
{ "type": "Feature", "properties": { "dep": "43", "nom_dept": "Haute-Loire" }, "geometry": { "type": "Point", "coordinates": [ 3.806401140129414, 45.128144592937907 ] } },
{ "type": "Feature", "properties": { "dep": "44", "nom_dept": "Loire-Atlantique" }, "geometry": { "type": "Point", "coordinates": [ -1.67924386511247, 47.362721632233118 ] } },
{ "type": "Feature", "properties": { "dep": "45", "nom_dept": "Loiret" }, "geometry": { "type": "Point", "coordinates": [ 2.344271123995864, 47.91194620403644 ] } },
{ "type": "Feature", "properties": { "dep": "46", "nom_dept": "Lot" }, "geometry": { "type": "Point", "coordinates": [ 1.604754905163567, 44.624263339671622 ] } },
{ "type": "Feature", "properties": { "dep": "47", "nom_dept": "Lot-et-Garonne" }, "geometry": { "type": "Point", "coordinates": [ 0.460415948763827, 44.36769337680164 ] } },
{ "type": "Feature", "properties": { "dep": "48", "nom_dept": "Lozère" }, "geometry": { "type": "Point", "coordinates": [ 3.500209093336404, 44.517018350933135 ] } },
{ "type": "Feature", "properties": { "dep": "49", "nom_dept": "Maine-et-Loire" }, "geometry": { "type": "Point", "coordinates": [ -0.559630879511167, 47.389720201702943 ] } },
{ "type": "Feature", "properties": { "dep": "50", "nom_dept": "Manche" }, "geometry": { "type": "Point", "coordinates": [ -1.327101273302733, 49.079054404591986 ] } },
{ "type": "Feature", "properties": { "dep": "51", "nom_dept": "Marne" }, "geometry": { "type": "Point", "coordinates": [ 4.23841601875649, 48.949773393185723 ] } },
{ "type": "Feature", "properties": { "dep": "52", "nom_dept": "Haute-Marne" }, "geometry": { "type": "Point", "coordinates": [ 5.226581234638597, 48.109554731334278 ] } },
{ "type": "Feature", "properties": { "dep": "53", "nom_dept": "Mayenne" }, "geometry": { "type": "Point", "coordinates": [ -0.658053065749366, 48.146766698891199 ] } },
{ "type": "Feature", "properties": { "dep": "54", "nom_dept": "Meurthe-et-Moselle" }, "geometry": { "type": "Point", "coordinates": [ 6.164585200307409, 48.787526299531834 ] } },
{ "type": "Feature", "properties": { "dep": "55", "nom_dept": "Meuse" }, "geometry": { "type": "Point", "coordinates": [ 5.381669856129042, 48.989823021809123 ] } },
{ "type": "Feature", "properties": { "dep": "56", "nom_dept": "Morbihan" }, "geometry": { "type": "Point", "coordinates": [ -2.810393338876625, 47.846481063544317 ] } },
{ "type": "Feature", "properties": { "dep": "57", "nom_dept": "Moselle" }, "geometry": { "type": "Point", "coordinates": [ 6.663113283777685, 49.037365346044538 ] } },
{ "type": "Feature", "properties": { "dep": "58", "nom_dept": "Nièvre" }, "geometry": { "type": "Point", "coordinates": [ 3.504723998099964, 47.115262479093495 ] } },
{ "type": "Feature", "properties": { "dep": "59", "nom_dept": "Nord" }, "geometry": { "type": "Point", "coordinates": [ 3.21943494019678, 50.447962724519094 ] } },
{ "type": "Feature", "properties": { "dep": "60", "nom_dept": "Oise" }, "geometry": { "type": "Point", "coordinates": [ 2.425528689069875, 49.410125593646711 ] } },
{ "type": "Feature", "properties": { "dep": "61", "nom_dept": "Orne" }, "geometry": { "type": "Point", "coordinates": [ 0.128634282145405, 48.623601922433288 ] } },
{ "type": "Feature", "properties": { "dep": "62", "nom_dept": "Pas-de-Calais" }, "geometry": { "type": "Point", "coordinates": [ 2.288272410208084, 50.493868824692861 ] } },
{ "type": "Feature", "properties": { "dep": "63", "nom_dept": "Puy-de-Dôme" }, "geometry": { "type": "Point", "coordinates": [ 3.140918611222258, 45.725691182938959 ] } },
{ "type": "Feature", "properties": { "dep": "64", "nom_dept": "Pyrénées-Atlantiques" }, "geometry": { "type": "Point", "coordinates": [ -0.760949092515483, 43.256423309182431 ] } },
{ "type": "Feature", "properties": { "dep": "65", "nom_dept": "Hautes-Pyrénées" }, "geometry": { "type": "Point", "coordinates": [ 0.16381309319044, 43.053141495961093 ] } },
{ "type": "Feature", "properties": { "dep": "66", "nom_dept": "Pyrénées-Orientales" }, "geometry": { "type": "Point", "coordinates": [ 2.521638330486065, 42.600025423232204 ] } },
{ "type": "Feature", "properties": { "dep": "67", "nom_dept": "Bas-Rhin" }, "geometry": { "type": "Point", "coordinates": [ 7.551457274595887, 48.670728686172758 ] } },
{ "type": "Feature", "properties": { "dep": "68", "nom_dept": "Haut-Rhin" }, "geometry": { "type": "Point", "coordinates": [ 7.274000870301085, 47.858754266555124 ] } },
{ "type": "Feature", "properties": { "dep": "69", "nom_dept": "Rhône" }, "geometry": { "type": "Point", "coordinates": [ 4.641398609723958, 45.87040219713284 ] } },
{ "type": "Feature", "properties": { "dep": "70", "nom_dept": "Haute-Saône" }, "geometry": { "type": "Point", "coordinates": [ 6.08624662145054, 47.641263584707787 ] } },
{ "type": "Feature", "properties": { "dep": "71", "nom_dept": "Saône-et-Loire" }, "geometry": { "type": "Point", "coordinates": [ 4.542285966938426, 46.644699556496093 ] } },
{ "type": "Feature", "properties": { "dep": "72", "nom_dept": "Sarthe" }, "geometry": { "type": "Point", "coordinates": [ 0.222374900929933, 47.994529407257325 ] } },
{ "type": "Feature", "properties": { "dep": "73", "nom_dept": "Savoie" }, "geometry": { "type": "Point", "coordinates": [ 6.443674630225553, 45.47752756693432 ] } },
{ "type": "Feature", "properties": { "dep": "74", "nom_dept": "Haute-Savoie" }, "geometry": { "type": "Point", "coordinates": [ 6.427937211928798, 46.034515339442144 ] } },
{ "type": "Feature", "properties": { "dep": "75", "nom_dept": "Paris" }, "geometry": { "type": "Point", "coordinates": [ 2.342926682860958, 48.856618239573926 ] } },
{ "type": "Feature", "properties": { "dep": "76", "nom_dept": "Seine-Maritime" }, "geometry": { "type": "Point", "coordinates": [ 1.027591417410435, 49.655096355490919 ] } },
{ "type": "Feature", "properties": { "dep": "77", "nom_dept": "Seine-et-Marne" }, "geometry": { "type": "Point", "coordinates": [ 2.933562360275127, 48.626679160133008 ] } },
{ "type": "Feature", "properties": { "dep": "78", "nom_dept": "Yvelines" }, "geometry": { "type": "Point", "coordinates": [ 1.841429959379576, 48.81503251327608 ] } },
{ "type": "Feature", "properties": { "dep": "79", "nom_dept": "Deux-Sèvres" }, "geometry": { "type": "Point", "coordinates": [ -0.317081822723556, 46.555565873109472 ] } },
{ "type": "Feature", "properties": { "dep": "80", "nom_dept": "Somme" }, "geometry": { "type": "Point", "coordinates": [ 2.277461761651855, 49.95816743724032 ] } },
{ "type": "Feature", "properties": { "dep": "81", "nom_dept": "Tarn" }, "geometry": { "type": "Point", "coordinates": [ 2.166364264995747, 43.785423494025046 ] } },
{ "type": "Feature", "properties": { "dep": "82", "nom_dept": "Tarn-et-Garonne" }, "geometry": { "type": "Point", "coordinates": [ 1.28184081388205, 44.085834356140616 ] } },
{ "type": "Feature", "properties": { "dep": "83", "nom_dept": "Var" }, "geometry": { "type": "Point", "coordinates": [ 6.244093722979421, 43.441525731241427 ] } },
{ "type": "Feature", "properties": { "dep": "84", "nom_dept": "Vaucluse" }, "geometry": { "type": "Point", "coordinates": [ 5.17828661187725, 44.006844284293066 ] } },
{ "type": "Feature", "properties": { "dep": "85", "nom_dept": "Vendée" }, "geometry": { "type": "Point", "coordinates": [ -1.297637145582725, 46.675072546423998 ] } },
{ "type": "Feature", "properties": { "dep": "86", "nom_dept": "Vienne" }, "geometry": { "type": "Point", "coordinates": [ 0.460300840943867, 46.564137227841421 ] } },
{ "type": "Feature", "properties": { "dep": "87", "nom_dept": "Haute-Vienne" }, "geometry": { "type": "Point", "coordinates": [ 1.235180055597825, 45.89164245467073 ] } },
{ "type": "Feature", "properties": { "dep": "88", "nom_dept": "Vosges" }, "geometry": { "type": "Point", "coordinates": [ 6.380465681570402, 48.19669623214547 ] } },
{ "type": "Feature", "properties": { "dep": "89", "nom_dept": "Yonne" }, "geometry": { "type": "Point", "coordinates": [ 3.56445464307549, 47.839941800810941 ] } },
{ "type": "Feature", "properties": { "dep": "90", "nom_dept": "Territoire de Belfort" }, "geometry": { "type": "Point", "coordinates": [ 6.928779913586753, 47.63166061834059 ] } },
{ "type": "Feature", "properties": { "dep": "91", "nom_dept": "Essonne" }, "geometry": { "type": "Point", "coordinates": [ 2.243222762471728, 48.522459917955871 ] } },
{ "type": "Feature", "properties": { "dep": "92", "nom_dept": "Hauts-de-Seine" }, "geometry": { "type": "Point", "coordinates": [ 2.246075477662453, 48.847495531671022 ] } },
{ "type": "Feature", "properties": { "dep": "93", "nom_dept": "Seine-Saint-Denis" }, "geometry": { "type": "Point", "coordinates": [ 2.478556272567243, 48.917605253406997 ] } },
{ "type": "Feature", "properties": { "dep": "94", "nom_dept": "Val-de-Marne" }, "geometry": { "type": "Point", "coordinates": [ 2.46929541664811, 48.777436945597785 ] } },
{ "type": "Feature", "properties": { "dep": "95", "nom_dept": "Val-d'Oise" }, "geometry": { "type": "Point", "coordinates": [ 2.131071513999901, 49.082932004222229 ] } },
{ "type": "Feature", "properties": { "dep": "971", "nom_dept": "Guadeloupe" }, "geometry": { "type": "Point", "coordinates": [ -8.039851756830252, 47.497500951734132 ] } },
{ "type": "Feature", "properties": { "dep": "972", "nom_dept": "Martinique" }, "geometry": { "type": "Point", "coordinates": [ -8.018961919625381, 45.454698266707602 ] } },
{ "type": "Feature", "properties": { "dep": "973", "nom_dept": "Guyane" }, "geometry": { "type": "Point", "coordinates": [ -7.039979501263916, 43.015033681989522 ] } },
{ "type": "Feature", "properties": { "dep": "974", "nom_dept": "La Réunion" }, "geometry": { "type": "Point", "coordinates": [ -6.467254872763037, 40.966673683021192 ] } },
{ "type": "Feature", "properties": { "dep": "976", "nom_dept": "Mayotte" }, "geometry": { "type": "Point", "coordinates": [ -6.552523723945374, 39.47926680261105 ] } }
]
}
